{"type":"FeatureCollection","crs":{"type":"name","properties":{"name":"urn:ogc:def:crs:OGC:1.3:CRS84"}},"features":[{"type":"Feature","properties":{"id":"01011101","name":"Stülerstraße"},"geometry":{"type":"Point","coordinates":[13.349185260208737,52.50648567111191]}},{"type":"Feature","properties":{"id":"01011102","name":"Großer Tiergarten"},"geometry":{"type":"Point","coordinates":[13.353700927101269,52.51411307133553]}},{"type":"Feature","properties":{"id":"01011103","name":"Lützowstraße"},"geometry":{"type":"Point","coordinates":[13.35869611825295,52.503487522223224]}},{"type":"Feature","properties":{"id":"01011104","name":"Körnerstraße"},"geometry":{"type":"Point","coordinates":[13.368219057739989,52.50210478668903]}},{"type":"Feature","properties":{"id":"01011202","name":"Unter den Linden Nord"},"geometry":{"type":"Point","coordinates":[13.389435927691398,52.51911495703976]}},{"type":"Feature","properties":{"id":"01011203","name":"Unter den Linden Süd"},"geometry":{"type":"Point","coordinates":[13.391974648095637,52.51495428210054]}},{"type":"Feature","properties":{"id":"01011204","name":"Leipziger Straße"},"geometry":{"type":"Point","coordinates":[13.397917955686387,52.51152690407853]}},{"type":"Feature","properties":{"id":"01011301","name":"Charitéviertel"},"geometry":{"type":"Point","coordinates":[13.37792404808664,52.527886808239465]}},{"type":"Feature","properties":{"id":"01011302","name":"Oranienburger Straße"},"geometry":{"type":"Point","coordinates":[13.39808724053152,52.52589947191045]}},{"type":"Feature","properties":{"id":"01011303","name":"Alexanderplatzviertel"},"geometry":{"type":"Point","coordinates":[13.410265223547139,52.520972277661905]}},{"type":"Feature","properties":{"id":"01011304","name":"Karl-Marx-Allee"},"geometry":{"type":"Point","coordinates":[13.421551953673392,52.51896547088995]}},{"type":"Feature","properties":{"id":"01011305","name":"Heine-Viertel West"},"geometry":{"type":"Point","coordinates":[13.410087870049148,52.509747735025385]}},{"type":"Feature","properties":{"id":"01011306","name":"Heine-Viertel Ost"},"geometry":{"type":"Point","coordinates":[13.420609418737008,52.50899869564745]}},{"type":"Feature","properties":{"id":"01011401","name":"Invalidenstraße"},"geometry":{"type":"Point","coordinates":[13.394098858580964,52.53372732186767]}},{"type":"Feature","properties":{"id":"01011402","name":"Arkonaplatz"},"geometry":{"type":"Point","coordinates":[13.402408068779588,52.535071801807]}},{"type":"Feature","properties":{"id":"01022101","name":"Huttenkiez"},"geometry":{"type":"Point","coordinates":[13.32025490492701,52.52820616838846]}},{"type":"Feature","properties":{"id":"01022102","name":"Beusselkiez"},"geometry":{"type":"Point","coordinates":[13.326661105370821,52.528715809798385]}},{"type":"Feature","properties":{"id":"01022103","name":"Westhafen"},"geometry":{"type":"Point","coordinates":[13.33452415142819,52.53682406905965]}},{"type":"Feature","properties":{"id":"01022104","name":"Emdener Straße"},"geometry":{"type":"Point","coordinates":[13.336712669451932,52.53007996866786]}},{"type":"Feature","properties":{"id":"01022105","name":"Zwinglistraße"},"geometry":{"type":"Point","coordinates":[13.33229554818287,52.52563672421162]}},{"type":"Feature","properties":{"id":"01022106","name":"Elberfelder Straße"},"geometry":{"type":"Point","coordinates":[13.335264129892796,52.52165983334182]}},{"type":"Feature","properties":{"id":"01022201","name":"Stephankiez"},"geometry":{"type":"Point","coordinates":[13.354267146219595,52.53144497957878]}},{"type":"Feature","properties":{"id":"01022202","name":"Heidestraße"},"geometry":{"type":"Point","coordinates":[13.36529800942572,52.531808279918494]}},{"type":"Feature","properties":{"id":"01022203","name":"Lübecker Straße"},"geometry":{"type":"Point","coordinates":[13.348191368926104,52.52825513985794]}},{"type":"Feature","properties":{"id":"01022204","name":"Thomasiusstraße"},"geometry":{"type":"Point","coordinates":[13.35222705374736,52.5230517362868]}},{"type":"Feature","properties":{"id":"01022205","name":"Zillesiedlung"},"geometry":{"type":"Point","coordinates":[13.360943233682383,52.525572317456295]}},{"type":"Feature","properties":{"id":"01022206","name":"Lüneburger Straße"},"geometry":{"type":"Point","coordinates":[13.362689948652603,52.52186264399562]}},{"type":"Feature","properties":{"id":"01022207","name":"Hansaviertel"},"geometry":{"type":"Point","coordinates":[13.34188515728039,52.51854699852633]}},{"type":"Feature","properties":{"id":"01033101","name":"Soldiner Straße"},"geometry":{"type":"Point","coordinates":[13.38577422454559,52.561345023340365]}},{"type":"Feature","properties":{"id":"01033202","name":"Humboldthain Süd"},"geometry":{"type":"Point","coordinates":[13.386714288199045,52.54113133465189]}},{"type":"Feature","properties":{"id":"01033203","name":"Humboldthain Nordwest"},"geometry":{"type":"Point","coordinates":[13.373128249278887,52.54320779082316]}},{"type":"Feature","properties":{"id":"01044101","name":"Rehberge"},"geometry":{"type":"Point","coordinates":[13.32878933350767,52.55109583117901]}},{"type":"Feature","properties":{"id":"01044102","name":"Schillerpark"},"geometry":{"type":"Point","coordinates":[13.352798868261504,52.55759223540305]}},{"type":"Feature","properties":{"id":"01044103","name":"Westliche Müllerstraße"},"geometry":{"type":"Point","coordinates":[13.35119683147758,52.54636478401261]}},{"type":"Feature","properties":{"id":"01044202","name":"Sparrplatz"},"geometry":{"type":"Point","coordinates":[13.356216941190501,52.54199983093496]}},{"type":"Feature","properties":{"id":"02030401","name":"Reichenberger Straße"},"geometry":{"type":"Point","coordinates":[13.432933735086642,52.49526128519287]}},{"type":"Feature","properties":{"id":"02030402","name":"Wrangelkiez"},"geometry":{"type":"Point","coordinates":[13.443748894556268,52.49805070682461]}},{"type":"Feature","properties":{"id":"02010101","name":"Askanischer Platz"},"geometry":{"type":"Point","coordinates":[13.382020282920072,52.50296510135827]}},{"type":"Feature","properties":{"id":"02010102","name":"Mehringplatz"},"geometry":{"type":"Point","coordinates":[13.391577244620832,52.50357560595292]}},{"type":"Feature","properties":{"id":"02010103","name":"Moritzplatz"},"geometry":{"type":"Point","coordinates":[13.40743790305064,52.50209535997043]}},{"type":"Feature","properties":{"id":"02010104","name":"Wassertorplatz"},"geometry":{"type":"Point","coordinates":[13.414112836821273,52.49730469381538]}},{"type":"Feature","properties":{"id":"02020201","name":"Gleisdreieck/Entwicklungsgebiet"},"geometry":{"type":"Point","coordinates":[13.37436698759994,52.497017738409745]}},{"type":"Feature","properties":{"id":"02030301","name":"Oranienplatz"},"geometry":{"type":"Point","coordinates":[13.42023717291653,52.502073920427165]}},{"type":"Feature","properties":{"id":"02030302","name":"Lausitzer Platz"},"geometry":{"type":"Point","coordinates":[13.432415189704333,52.50261062100378]}},{"type":"Feature","properties":{"id":"02040501","name":"Barnimkiez"},"geometry":{"type":"Point","coordinates":[13.433561190871451,52.52630386240571]}},{"type":"Feature","properties":{"id":"02040502","name":"Friedenstraße"},"geometry":{"type":"Point","coordinates":[13.438590404661129,52.520915047071355]}},{"type":"Feature","properties":{"id":"02040503","name":"Richard-Sorge-Viertel"},"geometry":{"type":"Point","coordinates":[13.447274405602899,52.520270771713705]}},{"type":"Feature","properties":{"id":"02040701","name":"Andreasviertel"},"geometry":{"type":"Point","coordinates":[13.431913766169279,52.51379561211937]}},{"type":"Feature","properties":{"id":"02040702","name":"Weberwiese"},"geometry":{"type":"Point","coordinates":[13.447050399135723,52.513163472301436]}},{"type":"Feature","properties":{"id":"02040703","name":"Wriezener Bahnhof/Entwicklungsgebiet"},"geometry":{"type":"Point","coordinates":[13.44163280723903,52.50727412929084]}},{"type":"Feature","properties":{"id":"02050601","name":"Hausburgviertel"},"geometry":{"type":"Point","coordinates":[13.451934399555693,52.52363612028527]}},{"type":"Feature","properties":{"id":"02050602","name":"Samariterviertel"},"geometry":{"type":"Point","coordinates":[13.465014757323125,52.51735649335619]}},{"type":"Feature","properties":{"id":"02050801","name":"Traveplatz"},"geometry":{"type":"Point","coordinates":[13.468530198641401,52.510352246905974]}},{"type":"Feature","properties":{"id":"02050802","name":"Boxhagener Platz"},"geometry":{"type":"Point","coordinates":[13.45494228163919,52.509211421536136]}},{"type":"Feature","properties":{"id":"02050803","name":"Stralauer Kiez"},"geometry":{"type":"Point","coordinates":[13.458223295566993,52.50103326572526]}},{"type":"Feature","properties":{"id":"03010101","name":"Bucher Forst"},"geometry":{"type":"Point","coordinates":[13.47196490536527,52.64678333486679]}},{"type":"Feature","properties":{"id":"03010102","name":"Buch"},"geometry":{"type":"Point","coordinates":[13.504555782204521,52.633338917148784]}},{"type":"Feature","properties":{"id":"03010104","name":"Lietzengraben"},"geometry":{"type":"Point","coordinates":[13.45506003243475,52.62338805624225]}},{"type":"Feature","properties":{"id":"03020203","name":"Blankenfelde"},"geometry":{"type":"Point","coordinates":[13.398451521621947,52.62402128238821]}},{"type":"Feature","properties":{"id":"03020209","name":"Niederschönhausen"},"geometry":{"type":"Point","coordinates":[13.395199244602692,52.58685844998679]}},{"type":"Feature","properties":{"id":"03020210","name":"Herthaplatz"},"geometry":{"type":"Point","coordinates":[13.41219159372123,52.59195430047623]}},{"type":"Feature","properties":{"id":"03020307","name":"Buchholz"},"geometry":{"type":"Point","coordinates":[13.430846624864293,52.60729618409616]}},{"type":"Feature","properties":{"id":"03030405","name":"Karow Nord"},"geometry":{"type":"Point","coordinates":[13.49084093643635,52.618294303372174]}},{"type":"Feature","properties":{"id":"03030406","name":"Alt-Karow"},"geometry":{"type":"Point","coordinates":[13.475783664499838,52.610108546663]}},{"type":"Feature","properties":{"id":"03030711","name":"Blankenburg"},"geometry":{"type":"Point","coordinates":[13.457343963048306,52.59393270616255]}},{"type":"Feature","properties":{"id":"03030715","name":"Heinersdorf"},"geometry":{"type":"Point","coordinates":[13.441068052473382,52.57076678003545]}},{"type":"Feature","properties":{"id":"03030716","name":"Märchenland"},"geometry":{"type":"Point","coordinates":[13.477715286485765,52.58479287303005]}},{"type":"Feature","properties":{"id":"03040508","name":"Rosenthal"},"geometry":{"type":"Point","coordinates":[13.377654840569987,52.59733770795299]}},{"type":"Feature","properties":{"id":"03040512","name":"Wilhelmsruh"},"geometry":{"type":"Point","coordinates":[13.369553147611567,52.58740056457118]}},{"type":"Feature","properties":{"id":"03040513","name":"Schönholz"},"geometry":{"type":"Point","coordinates":[13.383360371414998,52.5761344820001]}},{"type":"Feature","properties":{"id":"03040614","name":"Pankow Zentrum"},"geometry":{"type":"Point","coordinates":[13.412506435310078,52.57562227924363]}},{"type":"Feature","properties":{"id":"03050919","name":"Gustav-Adolf-Straße"},"geometry":{"type":"Point","coordinates":[13.445609599514231,52.55914449312009]}},{"type":"Feature","properties":{"id":"03050920","name":"Weißer See"},"geometry":{"type":"Point","coordinates":[13.45807674767804,52.555056265344604]}},{"type":"Feature","properties":{"id":"03050923","name":"Weißenseer Spitze"},"geometry":{"type":"Point","coordinates":[13.436387021781153,52.553413802252905]}},{"type":"Feature","properties":{"id":"03050924","name":"Behaimstraße"},"geometry":{"type":"Point","coordinates":[13.448383269703088,52.55032300623963]}},{"type":"Feature","properties":{"id":"03050925","name":"Komponistenviertel Weißensee"},"geometry":{"type":"Point","coordinates":[13.461084115252701,52.54565616192529]}},{"type":"Feature","properties":{"id":"03051017","name":"Rennbahnstraße"},"geometry":{"type":"Point","coordinates":[13.490649032667413,52.55910672430146]}},{"type":"Feature","properties":{"id":"03051021","name":"Buschallee"},"geometry":{"type":"Point","coordinates":[13.473671739721206,52.556759633521644]}},{"type":"Feature","properties":{"id":"03051022","name":"Hansastraße"},"geometry":{"type":"Point","coordinates":[13.47582303597842,52.55076042694008]}},{"type":"Feature","properties":{"id":"03061126","name":"Arnimplatz"},"geometry":{"type":"Point","coordinates":[13.405958983368429,52.553941497666486]}},{"type":"Feature","properties":{"id":"03061131","name":"Falkplatz"},"geometry":{"type":"Point","coordinates":[13.4064858559789,52.54563795900253]}},{"type":"Feature","properties":{"id":"03061227","name":"Humannplatz"},"geometry":{"type":"Point","coordinates":[13.422134688060556,52.54989531036099]}},{"type":"Feature","properties":{"id":"03061228","name":"Erich-Weinert-Straße"},"geometry":{"type":"Point","coordinates":[13.435678613369738,52.54616608078298]}},{"type":"Feature","properties":{"id":"03061332","name":"Helmholtzplatz"},"geometry":{"type":"Point","coordinates":[13.417744750387973,52.54406897392978]}},{"type":"Feature","properties":{"id":"03061429","name":"Greifswalder Straße"},"geometry":{"type":"Point","coordinates":[13.447838784084208,52.541850442168716]}},{"type":"Feature","properties":{"id":"03061430","name":"Volkspark Prenzlauer Berg"},"geometry":{"type":"Point","coordinates":[13.45846448729814,52.53556644045828]}},{"type":"Feature","properties":{"id":"03061434","name":"Anton-Saefkow-Park"},"geometry":{"type":"Point","coordinates":[13.440311412161323,52.53630516183575]}},{"type":"Feature","properties":{"id":"03061435","name":"Conrad-Blenkle-Straße"},"geometry":{"type":"Point","coordinates":[13.44844517182312,52.530831616384894]}},{"type":"Feature","properties":{"id":"03061441","name":"Eldenaer Straße"},"geometry":{"type":"Point","coordinates":[13.46119502403018,52.52322146966412]}},{"type":"Feature","properties":{"id":"03071536","name":"Teutoburger Platz"},"geometry":{"type":"Point","coordinates":[13.409356595612124,52.5355119755946]}},{"type":"Feature","properties":{"id":"03071537","name":"Kollwitzplatz"},"geometry":{"type":"Point","coordinates":[13.416839929236883,52.534506782750626]}},{"type":"Feature","properties":{"id":"03071633","name":"Thälmannpark"},"geometry":{"type":"Point","coordinates":[13.430126301797245,52.54000777937167]}},{"type":"Feature","properties":{"id":"03071638","name":"Winsstraße"},"geometry":{"type":"Point","coordinates":[13.424078754218261,52.53241312643146]}},{"type":"Feature","properties":{"id":"03071639","name":"Bötzowstraße"},"geometry":{"type":"Point","coordinates":[13.432906777866865,52.53209611068204]}},{"type":"Feature","properties":{"id":"04010101","name":"Jungfernheide"},"geometry":{"type":"Point","coordinates":[13.285508423727334,52.541017665262466]}},{"type":"Feature","properties":{"id":"04020206","name":"Angerburger Allee"},"geometry":{"type":"Point","coordinates":[13.221839675268873,52.51054311625351]}},{"type":"Feature","properties":{"id":"04020207","name":"Flatowallee"},"geometry":{"type":"Point","coordinates":[13.250767066668327,52.51155207298244]}},{"type":"Feature","properties":{"id":"04020209","name":"Eichkamp"},"geometry":{"type":"Point","coordinates":[13.26123064635564,52.49879184195716]}},{"type":"Feature","properties":{"id":"04020208","name":"Kranzallee"},"geometry":{"type":"Point","coordinates":[13.219523783691907,52.50579352068056]}},{"type":"Feature","properties":{"id":"04020310","name":"Park Ruhwald"},"geometry":{"type":"Point","coordinates":[13.276875641387894,52.52422274253488]}},{"type":"Feature","properties":{"id":"04020311","name":"Reichsstraße"},"geometry":{"type":"Point","coordinates":[13.256161732835263,52.514959530588854]}},{"type":"Feature","properties":{"id":"04020312","name":"Branitzer Platz"},"geometry":{"type":"Point","coordinates":[13.27009867497162,52.51678535249658]}},{"type":"Feature","properties":{"id":"04020313","name":"Königin-Elisabeth-Straße"},"geometry":{"type":"Point","coordinates":[13.280787871475443,52.51196979026552]}},{"type":"Feature","properties":{"id":"04020314","name":"Messegelände"},"geometry":{"type":"Point","coordinates":[13.273500207551931,52.50305933591371]}},{"type":"Feature","properties":{"id":"04010102","name":"Plötzensee"},"geometry":{"type":"Point","coordinates":[13.312237792593976,52.54213630811767]}},{"type":"Feature","properties":{"id":"04010103","name":"Paul-Hertz-Siedlung"},"geometry":{"type":"Point","coordinates":[13.299550881275517,52.537172954329115]}},{"type":"Feature","properties":{"id":"04030415","name":"Schloßgarten"},"geometry":{"type":"Point","coordinates":[13.290964539988238,52.524449047451455]}},{"type":"Feature","properties":{"id":"04030416","name":"Klausenerplatz"},"geometry":{"type":"Point","coordinates":[13.290014135844208,52.51605754458994]}},{"type":"Feature","properties":{"id":"04030417","name":"Schloßstraße"},"geometry":{"type":"Point","coordinates":[13.298826345387633,52.5146532565976]}},{"type":"Feature","properties":{"id":"04030518","name":"Tegeler Weg"},"geometry":{"type":"Point","coordinates":[13.301226420731128,52.52720435992515]}},{"type":"Feature","properties":{"id":"04030519","name":"Kaiserin-Augusta-Allee"},"geometry":{"type":"Point","coordinates":[13.308016370572268,52.527772403900165]}},{"type":"Feature","properties":{"id":"04030620","name":"Alt-Lietzow"},"geometry":{"type":"Point","coordinates":[13.31055222498741,52.51797603111392]}},{"type":"Feature","properties":{"id":"04030621","name":"Spreestadt"},"geometry":{"type":"Point","coordinates":[13.326309714802491,52.51919977462792]}},{"type":"Feature","properties":{"id":"04030622","name":"Richard-Wagner-Straße"},"geometry":{"type":"Point","coordinates":[13.304004110860246,52.51516265653538]}},{"type":"Feature","properties":{"id":"04030827","name":"Karl-August-Platz"},"geometry":{"type":"Point","coordinates":[13.305742837783294,52.508010865508226]}},{"type":"Feature","properties":{"id":"04030724","name":"Lietzensee"},"geometry":{"type":"Point","coordinates":[13.287143573607779,52.50582148732223]}},{"type":"Feature","properties":{"id":"04030725","name":"Amtsgerichtsplatz"},"geometry":{"type":"Point","coordinates":[13.297180976500945,52.50710730768827]}},{"type":"Feature","properties":{"id":"04030726","name":"Droysenstraße"},"geometry":{"type":"Point","coordinates":[13.301594565015638,52.50204697325037]}},{"type":"Feature","properties":{"id":"04030929","name":"Hindemithplatz"},"geometry":{"type":"Point","coordinates":[13.309083283878856,52.502550926361025]}},{"type":"Feature","properties":{"id":"04031032","name":"Halensee"},"geometry":{"type":"Point","coordinates":[13.294108002823855,52.49751506346684]}},{"type":"Feature","properties":{"id":"04041137","name":"Flinsberger Platz"},"geometry":{"type":"Point","coordinates":[13.290851329247818,52.485433717602035]}},{"type":"Feature","properties":{"id":"04041238","name":"Kissinger Straße"},"geometry":{"type":"Point","coordinates":[13.291951836748488,52.48009431393679]}},{"type":"Feature","properties":{"id":"04041239","name":"Stadion Wilmersdorf"},"geometry":{"type":"Point","coordinates":[13.302430057791547,52.48026885129153]}},{"type":"Feature","properties":{"id":"04041240","name":"Messelpark"},"geometry":{"type":"Point","coordinates":[13.282822452971608,52.47266408050287]}},{"type":"Feature","properties":{"id":"04041241","name":"Breite Straße"},"geometry":{"type":"Point","coordinates":[13.293908411363178,52.472269542620296]}},{"type":"Feature","properties":{"id":"04041342","name":"Schlangenbader Straße"},"geometry":{"type":"Point","coordinates":[13.305226464267742,52.47312103297118]}},{"type":"Feature","properties":{"id":"04041343","name":"Binger Straße"},"geometry":{"type":"Point","coordinates":[13.310880616259642,52.473649949143706]}},{"type":"Feature","properties":{"id":"04041344","name":"Rüdesheimer Platz"},"geometry":{"type":"Point","coordinates":[13.316373707012229,52.47217713359751]}},{"type":"Feature","properties":{"id":"04051445","name":"Eisenzahnstraße"},"geometry":{"type":"Point","coordinates":[13.304574898642207,52.491987758148504]}},{"type":"Feature","properties":{"id":"04051446","name":"Preußenpark"},"geometry":{"type":"Point","coordinates":[13.313273063847939,52.49591875175086]}},{"type":"Feature","properties":{"id":"04051447","name":"Ludwigkirchplatz"},"geometry":{"type":"Point","coordinates":[13.32080956567199,52.495494610079575]}},{"type":"Feature","properties":{"id":"04051448","name":"Schaperstraße"},"geometry":{"type":"Point","coordinates":[13.327245213874276,52.49725013709816]}},{"type":"Feature","properties":{"id":"04051550","name":"Leon-Jessel-Platz"},"geometry":{"type":"Point","coordinates":[13.319663459910437,52.489746504430734]}},{"type":"Feature","properties":{"id":"04051652","name":"Nikolsburger Platz"},"geometry":{"type":"Point","coordinates":[13.326708758275577,52.49050409094015]}},{"type":"Feature","properties":{"id":"04051653","name":"Prager Platz"},"geometry":{"type":"Point","coordinates":[13.333927239528517,52.49128065184689]}},{"type":"Feature","properties":{"id":"04051654","name":"Wilhelmsaue"},"geometry":{"type":"Point","coordinates":[13.327856513265273,52.484953782771186]}},{"type":"Feature","properties":{"id":"04051655","name":"Babelsberger Straße"},"geometry":{"type":"Point","coordinates":[13.33319334986366,52.48237459505802]}},{"type":"Feature","properties":{"id":"04051656","name":"Hildegardstraße"},"geometry":{"type":"Point","coordinates":[13.32448028852634,52.48025934794448]}},{"type":"Feature","properties":{"id":"04061757","name":"Forst Grunewald"},"geometry":{"type":"Point","coordinates":[13.205948343994363,52.48584114447459]}},{"type":"Feature","properties":{"id":"05010339","name":"Freiheit"},"geometry":{"type":"Point","coordinates":[13.227722584342013,52.5301476093638]}},{"type":"Feature","properties":{"id":"05020523","name":"Maulbeerallee"},"geometry":{"type":"Point","coordinates":[13.174392864884181,52.522129143885415]}},{"type":"Feature","properties":{"id":"05020524","name":"Weinmeisterhornweg"},"geometry":{"type":"Point","coordinates":[13.170459938498487,52.51019084041031]}},{"type":"Feature","properties":{"id":"05020625","name":"Borkumer Straße"},"geometry":{"type":"Point","coordinates":[13.185125431406364,52.53112061028577]}},{"type":"Feature","properties":{"id":"05020626","name":"Adamstraße"},"geometry":{"type":"Point","coordinates":[13.194714440210246,52.522300981286065]}},{"type":"Feature","properties":{"id":"05020627","name":"Tiefwerder"},"geometry":{"type":"Point","coordinates":[13.21216703570333,52.52307871970837]}},{"type":"Feature","properties":{"id":"05020628","name":"Graetschelsteig"},"geometry":{"type":"Point","coordinates":[13.188123160040345,52.51728381598679]}},{"type":"Feature","properties":{"id":"05020629","name":"Börnicker Straße"},"geometry":{"type":"Point","coordinates":[13.19726146909745,52.508450517889095]}},{"type":"Feature","properties":{"id":"05040934","name":"Alt-Gatow"},"geometry":{"type":"Point","coordinates":[13.179289274171671,52.48339582196175]}},{"type":"Feature","properties":{"id":"05040935","name":"Groß-Glienicker Weg"},"geometry":{"type":"Point","coordinates":[13.16121550198114,52.481896168833664]}},{"type":"Feature","properties":{"id":"05040936","name":"Jägerallee"},"geometry":{"type":"Point","coordinates":[13.127102511973485,52.46881338529565]}},{"type":"Feature","properties":{"id":"05040937","name":"Kladower Damm"},"geometry":{"type":"Point","coordinates":[13.151549606632983,52.45432800384595]}},{"type":"Feature","properties":{"id":"05040938","name":"Kafkastraße"},"geometry":{"type":"Point","coordinates":[13.126457198497524,52.44824415345494]}},{"type":"Feature","properties":{"id":"06010101","name":"Fichtenberg"},"geometry":{"type":"Point","coordinates":[13.311708991878898,52.4594864021316]}},{"type":"Feature","properties":{"id":"06010102","name":"Schloßstraße"},"geometry":{"type":"Point","coordinates":[13.320297114556388,52.45949728016072]}},{"type":"Feature","properties":{"id":"06010103","name":"Markelstraße"},"geometry":{"type":"Point","coordinates":[13.321218357291283,52.46446685666375]}},{"type":"Feature","properties":{"id":"06010204","name":"Munsterdamm"},"geometry":{"type":"Point","coordinates":[13.34839651771485,52.453628967811945]}},{"type":"Feature","properties":{"id":"06010205","name":"Südende"},"geometry":{"type":"Point","coordinates":[13.349784367450177,52.447092929805244]}},{"type":"Feature","properties":{"id":"06010208","name":"Bergstraße"},"geometry":{"type":"Point","coordinates":[13.336749060477757,52.455783165944]}},{"type":"Feature","properties":{"id":"06010209","name":"Feuerbachstraße"},"geometry":{"type":"Point","coordinates":[13.33410973607221,52.46223765238214]}},{"type":"Feature","properties":{"id":"06010210","name":"Bismarckstraße"},"geometry":{"type":"Point","coordinates":[13.342401726490621,52.46110546661331]}},{"type":"Feature","properties":{"id":"06020407","name":"Thermometersiedlung"},"geometry":{"type":"Point","coordinates":[13.315782230393376,52.40762469297607]}},{"type":"Feature","properties":{"id":"06020408","name":"Lichterfelde Süd"},"geometry":{"type":"Point","coordinates":[13.305110267950042,52.41443596308578]}},{"type":"Feature","properties":{"id":"06030605","name":"Botanischer Garten"},"geometry":{"type":"Point","coordinates":[13.30119559655033,52.449922118244245]}},{"type":"Feature","properties":{"id":"06030606","name":"Hindenburgdamm"},"geometry":{"type":"Point","coordinates":[13.318236397844968,52.442138416601736]}},{"type":"Feature","properties":{"id":"06030607","name":"Goerzwerke"},"geometry":{"type":"Point","coordinates":[13.287146457325168,52.414757567154375]}},{"type":"Feature","properties":{"id":"06030608","name":"Schweizer Viertel"},"geometry":{"type":"Point","coordinates":[13.288260322733342,52.424730302986234]}},{"type":"Feature","properties":{"id":"06030609","name":"Augustaplatz"},"geometry":{"type":"Point","coordinates":[13.308384496961882,52.441712069086776]}},{"type":"Feature","properties":{"id":"06030610","name":"Lichterfelde West"},"geometry":{"type":"Point","coordinates":[13.294912956079163,52.437608988281525]}},{"type":"Feature","properties":{"id":"06030501","name":"Berlepschstraße"},"geometry":{"type":"Point","coordinates":[13.249330051501182,52.425505553703786]}},{"type":"Feature","properties":{"id":"06030502","name":"Zehlendorf Süd"},"geometry":{"type":"Point","coordinates":[13.256763378520894,52.41065752796417]}},{"type":"Feature","properties":{"id":"06030503","name":"Zehlendorf Mitte"},"geometry":{"type":"Point","coordinates":[13.275014770917359,52.435227703886596]}},{"type":"Feature","properties":{"id":"06030504","name":"Teltower Damm"},"geometry":{"type":"Point","coordinates":[13.264928465173025,52.42144030963178]}},{"type":"Feature","properties":{"id":"06040804","name":"Krumme Lanke"},"geometry":{"type":"Point","coordinates":[13.23069393814067,52.44977646950598]}},{"type":"Feature","properties":{"id":"06040805","name":"Fischerhüttenstraße"},"geometry":{"type":"Point","coordinates":[13.24439228324936,52.439007034762554]}},{"type":"Feature","properties":{"id":"06040809","name":"Thielallee"},"geometry":{"type":"Point","coordinates":[13.285079040720907,52.4492649774903]}},{"type":"Feature","properties":{"id":"06040810","name":"Dahlem"},"geometry":{"type":"Point","coordinates":[13.280885462977663,52.4601794557792]}},{"type":"Feature","properties":{"id":"07030301","name":"Friedenau"},"geometry":{"type":"Point","coordinates":[13.327111936213482,52.47146600847539]}},{"type":"Feature","properties":{"id":"07040401","name":"Neu-Tempelhof"},"geometry":{"type":"Point","coordinates":[13.398586256206215,52.47525053483295]}},{"type":"Feature","properties":{"id":"07040406","name":"Germaniagarten"},"geometry":{"type":"Point","coordinates":[13.416000595483156,52.461102903806236]}},{"type":"Feature","properties":{"id":"08010118","name":"Silbersteinstraße"},"geometry":{"type":"Point","coordinates":[13.42637524773293,52.466922198612856]}},{"type":"Feature","properties":{"id":"08010214","name":"Glasower Straße"},"geometry":{"type":"Point","coordinates":[13.439896915994002,52.466177151267345]}},{"type":"Feature","properties":{"id":"08010301","name":"Reuterkiez"},"geometry":{"type":"Point","coordinates":[13.432537278145691,52.48867867320482]}},{"type":"Feature","properties":{"id":"08010302","name":"Bouchéstraße"},"geometry":{"type":"Point","coordinates":[13.4420854684659,52.48745362291996]}},{"type":"Feature","properties":{"id":"08010510","name":"Gewerbegebiet Köllnische Heide"},"geometry":{"type":"Point","coordinates":[13.459244469541513,52.46465281470095]}},{"type":"Feature","properties":{"id":"08030830","name":"Gropiusstadt Süd"},"geometry":{"type":"Point","coordinates":[13.451360615415714,52.42745048321843]}},{"type":"Feature","properties":{"id":"08030831","name":"Gropiusstadt Ost"},"geometry":{"type":"Point","coordinates":[13.472724038206065,52.424078404408775]}},{"type":"Feature","properties":{"id":"09010101","name":"Elsenstraße"},"geometry":{"type":"Point","coordinates":[13.451893667276362,52.49158669680093]}},{"type":"Feature","properties":{"id":"09010102","name":"Am Treptower Park Nord"},"geometry":{"type":"Point","coordinates":[13.470252032986417,52.4882361740263]}},{"type":"Feature","properties":{"id":"09010201","name":"Am Treptower Park Süd"},"geometry":{"type":"Point","coordinates":[13.467879515931815,52.48193497504409]}},{"type":"Feature","properties":{"id":"09010202","name":"Köpenicker Landstraße"},"geometry":{"type":"Point","coordinates":[13.482772716467792,52.479020667680544]}},{"type":"Feature","properties":{"id":"09010301","name":"Baumschulenstraße"},"geometry":{"type":"Point","coordinates":[13.48679101135495,52.465522336688835]}},{"type":"Feature","properties":{"id":"09010302","name":"Späthsfelde"},"geometry":{"type":"Point","coordinates":[13.477117109440528,52.449663728528435]}},{"type":"Feature","properties":{"id":"09010401","name":"Johannisthal West"},"geometry":{"type":"Point","coordinates":[13.49528395077099,52.44907967632811]}},{"type":"Feature","properties":{"id":"09010402","name":"Johannisthal Ost"},"geometry":{"type":"Point","coordinates":[13.513176585390166,52.438771743769145]}},{"type":"Feature","properties":{"id":"09020501","name":"Oberschöneweide West"},"geometry":{"type":"Point","coordinates":[13.505640132803405,52.47158736607077]}},{"type":"Feature","properties":{"id":"09020502","name":"Oberschöneweide Ost"},"geometry":{"type":"Point","coordinates":[13.538226522689857,52.463911818717044]}},{"type":"Feature","properties":{"id":"09020701","name":"Adlershof West"},"geometry":{"type":"Point","coordinates":[13.534405912471973,52.43120643431263]}},{"type":"Feature","properties":{"id":"09020801","name":"Spindlersfeld"},"geometry":{"type":"Point","coordinates":[13.564139033146748,52.44901866896506]}},{"type":"Feature","properties":{"id":"09020802","name":"Köllnische Vorstadt"},"geometry":{"type":"Point","coordinates":[13.566659631943743,52.43685241611719]}},{"type":"Feature","properties":{"id":"09030903","name":"Kölner Viertel"},"geometry":{"type":"Point","coordinates":[13.539114530480639,52.40459132552252]}},{"type":"Feature","properties":{"id":"09031001","name":"Bohnsdorf"},"geometry":{"type":"Point","coordinates":[13.564228966071894,52.3981509774397]}},{"type":"Feature","properties":{"id":"09031101","name":"Grünau"},"geometry":{"type":"Point","coordinates":[13.595732800746392,52.40547663526837]}},{"type":"Feature","properties":{"id":"09031201","name":"Karolinenhof"},"geometry":{"type":"Point","coordinates":[13.633440328135546,52.39245546705142]}},{"type":"Feature","properties":{"id":"09031202","name":"Schmöckwitz/Rauchfangswerder"},"geometry":{"type":"Point","coordinates":[13.657595209949083,52.368148124876186]}},{"type":"Feature","properties":{"id":"09041401","name":"Allende I"},"geometry":{"type":"Point","coordinates":[13.589140460306334,52.444876094511756]}},{"type":"Feature","properties":{"id":"09041402","name":"Allende II"},"geometry":{"type":"Point","coordinates":[13.597210203233077,52.44539052111634]}},{"type":"Feature","properties":{"id":"09041501","name":"Altstadt Kietz"},"geometry":{"type":"Point","coordinates":[13.578216931270974,52.44269659703414]}},{"type":"Feature","properties":{"id":"09041601","name":"Müggelheim"},"geometry":{"type":"Point","coordinates":[13.683590886490519,52.40701998869511]}},{"type":"Feature","properties":{"id":"09051701","name":"Hirschgarten"},"geometry":{"type":"Point","coordinates":[13.608039447409283,52.45187652246594]}},{"type":"Feature","properties":{"id":"09051702","name":"Bölschestraße"},"geometry":{"type":"Point","coordinates":[13.64212843845597,52.45883810112702]}},{"type":"Feature","properties":{"id":"09051801","name":"Rahnsdorf/Hessenwinkel"},"geometry":{"type":"Point","coordinates":[13.685151768576883,52.44484150680045]}},{"type":"Feature","properties":{"id":"09051901","name":"Dammvorstadt"},"geometry":{"type":"Point","coordinates":[13.58174894163772,52.45251418254502]}},{"type":"Feature","properties":{"id":"09052001","name":"Köpenick Nord"},"geometry":{"type":"Point","coordinates":[13.582219898641345,52.46893101937566]}},{"type":"Feature","properties":{"id":"10010102","name":"Havemannstraße"},"geometry":{"type":"Point","coordinates":[13.572144768300955,52.566290663004665]}},{"type":"Feature","properties":{"id":"10010204","name":"Wuhletalstraße"},"geometry":{"type":"Point","coordinates":[13.56542226928107,52.558614334396935]}},{"type":"Feature","properties":{"id":"10010206","name":"Ringkolonnaden"},"geometry":{"type":"Point","coordinates":[13.56736202066374,52.55131807925206]}},{"type":"Feature","properties":{"id":"10010207","name":"Marzahner Promenade"},"geometry":{"type":"Point","coordinates":[13.550966658039853,52.54581272664942]}},{"type":"Feature","properties":{"id":"10010308","name":"Marzahner Chaussee"},"geometry":{"type":"Point","coordinates":[13.530465113154342,52.524227326576124]}},{"type":"Feature","properties":{"id":"10010311","name":"Landsberger Tor"},"geometry":{"type":"Point","coordinates":[13.576813269827104,52.53991384210166]}},{"type":"Feature","properties":{"id":"10020415","name":"Hellersdorfer Promenade"},"geometry":{"type":"Point","coordinates":[13.607416717930407,52.542354377740665]}},{"type":"Feature","properties":{"id":"10020416","name":"Böhlener Straße"},"geometry":{"type":"Point","coordinates":[13.614308450329183,52.541863308815195]}},{"type":"Feature","properties":{"id":"10020518","name":"Schleipfuhl"},"geometry":{"type":"Point","coordinates":[13.615997601293362,52.52975784553554]}},{"type":"Feature","properties":{"id":"10040829","name":"Alt-Kaulsdorf"},"geometry":{"type":"Point","coordinates":[13.585036834063668,52.509014755444475]}},{"type":"Feature","properties":{"id":"10020622","name":"Kaulsdorf Nord I"},"geometry":{"type":"Point","coordinates":[13.581456860568032,52.519341907706824]}},{"type":"Feature","properties":{"id":"10020623","name":"Rotes Viertel"},"geometry":{"type":"Point","coordinates":[13.592195350556754,52.52143838113503]}},{"type":"Feature","properties":{"id":"10030724","name":"Oberfeldstraße"},"geometry":{"type":"Point","coordinates":[13.55639073509363,52.52330878334341]}},{"type":"Feature","properties":{"id":"10030725","name":"Buckower Ring"},"geometry":{"type":"Point","coordinates":[13.57149721692814,52.52400184905146]}},{"type":"Feature","properties":{"id":"10030726","name":"Alt-Biesdorf"},"geometry":{"type":"Point","coordinates":[13.550698556140665,52.5069904098362]}},{"type":"Feature","properties":{"id":"10030727","name":"Biesdorf Süd"},"geometry":{"type":"Point","coordinates":[13.5600956654564,52.492631801302736]}},{"type":"Feature","properties":{"id":"10040932","name":"Alt-Mahlsdorf"},"geometry":{"type":"Point","coordinates":[13.617639348381095,52.508912816170415]}},{"type":"Feature","properties":{"id":"11010101","name":"Dorf Malchow"},"geometry":{"type":"Point","coordinates":[13.487426141427378,52.577462422036014]}},{"type":"Feature","properties":{"id":"11010102","name":"Dorf Wartenberg"},"geometry":{"type":"Point","coordinates":[13.52409798447559,52.583527454233916]}},{"type":"Feature","properties":{"id":"11010103","name":"Dorf Falkenberg"},"geometry":{"type":"Point","coordinates":[13.548685391233889,52.576864473181345]}},{"type":"Feature","properties":{"id":"11010204","name":"Falkenberg Ost"},"geometry":{"type":"Point","coordinates":[13.531208416636874,52.56550894381128]}},{"type":"Feature","properties":{"id":"11010205","name":"Falkenberg West"},"geometry":{"type":"Point","coordinates":[13.522502738479531,52.56261212003728]}},{"type":"Feature","properties":{"id":"11010206","name":"Wartenberg Süd"},"geometry":{"type":"Point","coordinates":[13.517857813334365,52.57021052357519]}},{"type":"Feature","properties":{"id":"11010207","name":"Wartenberg Nord"},"geometry":{"type":"Point","coordinates":[13.50752377732079,52.5739745608663]}},{"type":"Feature","properties":{"id":"11010309","name":"Zingster Straße West"},"geometry":{"type":"Point","coordinates":[13.493877140110735,52.56678241346451]}},{"type":"Feature","properties":{"id":"11010308","name":"Zingster Straße Ost"},"geometry":{"type":"Point","coordinates":[13.50248164239547,52.56967302961376]}},{"type":"Feature","properties":{"id":"11010310","name":"Mühlengrund"},"geometry":{"type":"Point","coordinates":[13.513478560739388,52.56122663166809]}},{"type":"Feature","properties":{"id":"11020411","name":"Malchower Weg"},"geometry":{"type":"Point","coordinates":[13.505243938262032,52.55633213211481]}},{"type":"Feature","properties":{"id":"11020412","name":"Hauptstraße"},"geometry":{"type":"Point","coordinates":[13.520711747059984,52.54636324672596]}},{"type":"Feature","properties":{"id":"11020513","name":"Orankesee"},"geometry":{"type":"Point","coordinates":[13.481977364191707,52.54430926351456]}},{"type":"Feature","properties":{"id":"11020514","name":"Große-Leege-Straße"},"geometry":{"type":"Point","coordinates":[13.491643181542123,52.54090820810019]}},{"type":"Feature","properties":{"id":"11020515","name":"Landsberger Allee"},"geometry":{"type":"Point","coordinates":[13.491920061888527,52.53691706773168]}},{"type":"Feature","properties":{"id":"11020516","name":"Weiße Taube"},"geometry":{"type":"Point","coordinates":[13.511229431105841,52.5390735037384]}},{"type":"Feature","properties":{"id":"11030617","name":"Hohenschönhausener Straße"},"geometry":{"type":"Point","coordinates":[13.469140750138498,52.53452266383574]}},{"type":"Feature","properties":{"id":"11030618","name":"Fennpfuhl West"},"geometry":{"type":"Point","coordinates":[13.469891864655663,52.52745649518552]}},{"type":"Feature","properties":{"id":"11030619","name":"Fennpfuhl Ost"},"geometry":{"type":"Point","coordinates":[13.481835450936257,52.52896385738601]}},{"type":"Feature","properties":{"id":"11030824","name":"Frankfurter Allee Süd"},"geometry":{"type":"Point","coordinates":[13.486230684792034,52.50823483090109]}},{"type":"Feature","properties":{"id":"11040925","name":"Victoriastadt"},"geometry":{"type":"Point","coordinates":[13.476473371750219,52.504101051574146]}},{"type":"Feature","properties":{"id":"11040926","name":"Weitlingstraße"},"geometry":{"type":"Point","coordinates":[13.499218328646426,52.50421212696628]}},{"type":"Feature","properties":{"id":"11041022","name":"Rosenfelder Ring"},"geometry":{"type":"Point","coordinates":[13.516360025312784,52.512069544617816]}},{"type":"Feature","properties":{"id":"11041023","name":"Gensinger Straße"},"geometry":{"type":"Point","coordinates":[13.521402461845438,52.51191043093144]}},{"type":"Feature","properties":{"id":"11041027","name":"Tierpark"},"geometry":{"type":"Point","coordinates":[13.529157720309492,52.5031458443486]}},{"type":"Feature","properties":{"id":"11041128","name":"Sewanstraße"},"geometry":{"type":"Point","coordinates":[13.511222655929636,52.49777792136605]}},{"type":"Feature","properties":{"id":"11051330","name":"Karlshorst West"},"geometry":{"type":"Point","coordinates":[13.520290686680102,52.4886475851309]}},{"type":"Feature","properties":{"id":"11051331","name":"Karlshorst Nord"},"geometry":{"type":"Point","coordinates":[13.538948747308936,52.485805599824275]}},{"type":"Feature","properties":{"id":"11051332","name":"Karlshorst Süd"},"geometry":{"type":"Point","coordinates":[13.520179508957046,52.47796644472235]}},{"type":"Feature","properties":{"id":"12103220","name":"Humboldtstraße"},"geometry":{"type":"Point","coordinates":[13.335413526899098,52.574364397775135]}},{"type":"Feature","properties":{"id":"12214421","name":"Reinickes Hof"},"geometry":{"type":"Point","coordinates":[13.327209530307655,52.575037192214374]}},{"type":"Feature","properties":{"id":"12214423","name":"Mellerbogen"},"geometry":{"type":"Point","coordinates":[13.319951552866138,52.57329862334764]}},{"type":"Feature","properties":{"id":"12214527","name":"Alt-Tegel"},"geometry":{"type":"Point","coordinates":[13.279336919869014,52.589060375494]}},{"type":"Feature","properties":{"id":"12214528","name":"Tegeler Forst"},"geometry":{"type":"Point","coordinates":[13.254679048377168,52.59235775499097]}},{"type":"Feature","properties":{"id":"12224229","name":"Konradshöhe/Tegelort"},"geometry":{"type":"Point","coordinates":[13.226168002021993,52.58183598393892]}},{"type":"Feature","properties":{"id":"12224230","name":"Heiligensee"},"geometry":{"type":"Point","coordinates":[13.2334877986555,52.612467734233256]}},{"type":"Feature","properties":{"id":"12231101","name":"Hermsdorf"},"geometry":{"type":"Point","coordinates":[13.306861713628095,52.61728223381242]}},{"type":"Feature","properties":{"id":"12231102","name":"Frohnau"},"geometry":{"type":"Point","coordinates":[13.289359152919678,52.64014226694341]}},{"type":"Feature","properties":{"id":"12301203","name":"Wittenau Süd"},"geometry":{"type":"Point","coordinates":[13.332427715322419,52.58582459711858]}},{"type":"Feature","properties":{"id":"12301204","name":"Wittenau Nord"},"geometry":{"type":"Point","coordinates":[13.319044471394545,52.5958057791461]}},{"type":"Feature","properties":{"id":"12301206","name":"Lübars"},"geometry":{"type":"Point","coordinates":[13.354299705117535,52.61523550780677]}},{"type":"Feature","properties":{"id":"12302211","name":"Lübarser Straße"},"geometry":{"type":"Point","coordinates":[13.336029457169184,52.602315341359805]}},{"type":"Feature","properties":{"id":"04030930","name":"George-Grosz-Platz"},"geometry":{"type":"Point","coordinates":[13.319122077065023,52.50227259872006]}},{"type":"Feature","properties":{"id":"04030931","name":"Breitscheidplatz"},"geometry":{"type":"Point","coordinates":[13.333037213792329,52.504432784167065]}},{"type":"Feature","properties":{"id":"06020301","name":"Alt-Lankwitz"},"geometry":{"type":"Point","coordinates":[13.358348033881326,52.43866171426865]}},{"type":"Feature","properties":{"id":"06020303","name":"Lankwitz Kirche"},"geometry":{"type":"Point","coordinates":[13.347106725477461,52.43729585125936]}},{"type":"Feature","properties":{"id":"07030302","name":"Ceciliengärten"},"geometry":{"type":"Point","coordinates":[13.339181872266556,52.47162711259084]}},{"type":"Feature","properties":{"id":"07030303","name":"Grazer Platz"},"geometry":{"type":"Point","coordinates":[13.350629002593282,52.46785381176324]}},{"type":"Feature","properties":{"id":"09041301","name":"Kietzer Feld/Nachtheide"},"geometry":{"type":"Point","coordinates":[13.62347931680635,52.42689316309943]}},{"type":"Feature","properties":{"id":"09041302","name":"Wendenschloß"},"geometry":{"type":"Point","coordinates":[13.590375587794178,52.4182933139808]}},{"type":"Feature","properties":{"id":"04030623","name":"Ernst-Reuter-Platz"},"geometry":{"type":"Point","coordinates":[13.324478164165773,52.51234528938309]}},{"type":"Feature","properties":{"id":"04030828","name":"Savignyplatz"},"geometry":{"type":"Point","coordinates":[13.319875949861853,52.50801325356147]}},{"type":"Feature","properties":{"id":"10040830","name":"Kaulsdorf Süd"},"geometry":{"type":"Point","coordinates":[13.58056853827301,52.49180310615166]}},{"type":"Feature","properties":{"id":"10040933","name":"Mahlsdorf Süd"},"geometry":{"type":"Point","coordinates":[13.606924121935418,52.487826234367816]}},{"type":"Feature","properties":{"id":"04051549","name":"Rathaus Wilmersdorf"},"geometry":{"type":"Point","coordinates":[13.311859333293938,52.48609234965606]}},{"type":"Feature","properties":{"id":"04051551","name":"Brabanter Platz"},"geometry":{"type":"Point","coordinates":[13.316459629569918,52.48049784177253]}},{"type":"Feature","properties":{"id":"02050804","name":"Stralauer Halbinsel"},"geometry":{"type":"Point","coordinates":[13.477313895460837,52.49285378651406]}},{"type":"Feature","properties":{"id":"11051229","name":"Rummelsburg"},"geometry":{"type":"Point","coordinates":[13.49306211565702,52.49172298311351]}},{"type":"Feature","properties":{"id":"04020205","name":"Siedlung Ruhleben"},"geometry":{"type":"Point","coordinates":[13.250112023366274,52.52079019788317]}},{"type":"Feature","properties":{"id":"04020204","name":"Olympiagelände"},"geometry":{"type":"Point","coordinates":[13.227686444591345,52.51784027138874]}},{"type":"Feature","properties":{"id":"04041133","name":"Güterbahnhof Grunewald"},"geometry":{"type":"Point","coordinates":[13.272667626391913,52.494760743849454]}},{"type":"Feature","properties":{"id":"04041134","name":"Bismarckallee"},"geometry":{"type":"Point","coordinates":[13.280124355329079,52.49055841994917]}},{"type":"Feature","properties":{"id":"01011105","name":"Nördlicher Landwehrkanal"},"geometry":{"type":"Point","coordinates":[13.366144956243302,52.507951955316585]}},{"type":"Feature","properties":{"id":"01011201","name":"Wilhelmstraße"},"geometry":{"type":"Point","coordinates":[13.38188693214148,52.5110138393509]}},{"type":"Feature","properties":{"id":"01033102","name":"Gesundbrunnen"},"geometry":{"type":"Point","coordinates":[13.389561125403992,52.552605155985034]}},{"type":"Feature","properties":{"id":"01033201","name":"Brunnenstraße"},"geometry":{"type":"Point","coordinates":[13.396075856727514,52.54471266130344]}},{"type":"Feature","properties":{"id":"01044203","name":"Leopoldplatz"},"geometry":{"type":"Point","coordinates":[13.362537840962528,52.55258382602637]}},{"type":"Feature","properties":{"id":"01044201","name":"Reinickendorfer Straße"},"geometry":{"type":"Point","coordinates":[13.372025478473383,52.550845062224234]}},{"type":"Feature","properties":{"id":"02020203","name":"Viktoriapark"},"geometry":{"type":"Point","coordinates":[13.381052780564175,52.48893083369555]}},{"type":"Feature","properties":{"id":"02020202","name":"Rathaus Yorckstraße"},"geometry":{"type":"Point","coordinates":[13.384334713935052,52.496089303809114]}},{"type":"Feature","properties":{"id":"02020204","name":"Urbanstraße"},"geometry":{"type":"Point","coordinates":[13.398524137228032,52.49384739203144]}},{"type":"Feature","properties":{"id":"02020205","name":"Chamissokiez"},"geometry":{"type":"Point","coordinates":[13.396264701595143,52.487849887709835]}},{"type":"Feature","properties":{"id":"02020206","name":"Graefekiez"},"geometry":{"type":"Point","coordinates":[13.41544862926482,52.49159038176658]}},{"type":"Feature","properties":{"id":"03040818","name":"Pankow Süd"},"geometry":{"type":"Point","coordinates":[13.419309795280489,52.563669303995894]}},{"type":"Feature","properties":{"id":"04041135","name":"Hundekehle"},"geometry":{"type":"Point","coordinates":[13.268959921789532,52.478696052929905]}},{"type":"Feature","properties":{"id":"04041136","name":"Hagenplatz"},"geometry":{"type":"Point","coordinates":[13.273455760403898,52.48324030357602]}},{"type":"Feature","properties":{"id":"05010102","name":"Goltzstraße"},"geometry":{"type":"Point","coordinates":[13.199608603191491,52.56425912250731]}},{"type":"Feature","properties":{"id":"05010101","name":"Hakenfelde Nord"},"geometry":{"type":"Point","coordinates":[13.18234065250381,52.57753365336967]}},{"type":"Feature","properties":{"id":"05010103","name":"Amorbacher Weg"},"geometry":{"type":"Point","coordinates":[13.189733801983042,52.55678534763307]}},{"type":"Feature","properties":{"id":"05010204","name":"Griesingerstraße"},"geometry":{"type":"Point","coordinates":[13.153739233981426,52.55977438082476]}},{"type":"Feature","properties":{"id":"05010206","name":"Gütersloher Weg"},"geometry":{"type":"Point","coordinates":[13.157275711924138,52.549228107039596]}},{"type":"Feature","properties":{"id":"05010207","name":"Darbystraße"},"geometry":{"type":"Point","coordinates":[13.178198835369288,52.54943063345932]}},{"type":"Feature","properties":{"id":"05010208","name":"Germersheimer Platz"},"geometry":{"type":"Point","coordinates":[13.187356741939059,52.54663156869202]}},{"type":"Feature","properties":{"id":"05010205","name":"An der Tränke"},"geometry":{"type":"Point","coordinates":[13.135784587272413,52.55055563927566]}},{"type":"Feature","properties":{"id":"05010310","name":"Eckschanze"},"geometry":{"type":"Point","coordinates":[13.1964317294964,52.55135173390627]}},{"type":"Feature","properties":{"id":"05010313","name":"Ackerstraße"},"geometry":{"type":"Point","coordinates":[13.198771386713265,52.54528030051006]}},{"type":"Feature","properties":{"id":"05010312","name":"Kurstraße"},"geometry":{"type":"Point","coordinates":[13.20620458556081,52.545950775553656]}},{"type":"Feature","properties":{"id":"05010311","name":"Eiswerder"},"geometry":{"type":"Point","coordinates":[13.214290234528251,52.5520059688958]}},{"type":"Feature","properties":{"id":"05010314","name":"Carl-Schurz-Straße"},"geometry":{"type":"Point","coordinates":[13.198059939105834,52.537553443848736]}},{"type":"Feature","properties":{"id":"05010209","name":"An der Kappe"},"geometry":{"type":"Point","coordinates":[13.148923214349983,52.54484811900165]}},{"type":"Feature","properties":{"id":"05020415","name":"Isenburger Weg"},"geometry":{"type":"Point","coordinates":[13.133890244978687,52.54323421806025]}},{"type":"Feature","properties":{"id":"05020416","name":"Am Heideberg"},"geometry":{"type":"Point","coordinates":[13.146645515633626,52.541265347654445]}},{"type":"Feature","properties":{"id":"05020417","name":"Staakener Straße"},"geometry":{"type":"Point","coordinates":[13.166077342712036,52.534508256364305]}},{"type":"Feature","properties":{"id":"05020418","name":"Spandauer Straße"},"geometry":{"type":"Point","coordinates":[13.14335637358516,52.535574817570634]}},{"type":"Feature","properties":{"id":"05020419","name":"Magistratsweg"},"geometry":{"type":"Point","coordinates":[13.152459738941232,52.52963870901827]}},{"type":"Feature","properties":{"id":"05020420","name":"Werkstraße"},"geometry":{"type":"Point","coordinates":[13.130127633772238,52.53286157217103]}},{"type":"Feature","properties":{"id":"05020521","name":"Döberitzer Weg"},"geometry":{"type":"Point","coordinates":[13.1241255973172,52.523729572846165]}},{"type":"Feature","properties":{"id":"05020522","name":"Pillnitzer Weg"},"geometry":{"type":"Point","coordinates":[13.14848473270048,52.52180185316948]}},{"type":"Feature","properties":{"id":"05030730","name":"Zitadellenweg"},"geometry":{"type":"Point","coordinates":[13.223025379829137,52.548567831976925]}},{"type":"Feature","properties":{"id":"05030731","name":"Gartenfelder Straße"},"geometry":{"type":"Point","coordinates":[13.23657515804053,52.54360365807193]}},{"type":"Feature","properties":{"id":"05030832","name":"Rohrdamm"},"geometry":{"type":"Point","coordinates":[13.25774447587383,52.545788081847405]}},{"type":"Feature","properties":{"id":"05030833","name":"Motardstraße"},"geometry":{"type":"Point","coordinates":[13.257354337609428,52.534421817250134]}},{"type":"Feature","properties":{"id":"06010206","name":"Stadtpark"},"geometry":{"type":"Point","coordinates":[13.334875878358128,52.44825866620771]}},{"type":"Feature","properties":{"id":"06010207","name":"Mittelstraße"},"geometry":{"type":"Point","coordinates":[13.32356155527927,52.45098682671008]}},{"type":"Feature","properties":{"id":"06020302","name":"Komponistenviertel Lankwitz"},"geometry":{"type":"Point","coordinates":[13.333500061944715,52.43918682368747]}},{"type":"Feature","properties":{"id":"06020409","name":"Königsberger Straße"},"geometry":{"type":"Point","coordinates":[13.319373864443323,52.43068098462081]}},{"type":"Feature","properties":{"id":"06020304","name":"Kaiser-Wilhelm-Straße"},"geometry":{"type":"Point","coordinates":[13.33819656185254,52.43207468178906]}},{"type":"Feature","properties":{"id":"06020305","name":"Gemeindepark Lankwitz"},"geometry":{"type":"Point","coordinates":[13.351188725907635,52.4280613423001]}},{"type":"Feature","properties":{"id":"06020306","name":"Lankwitz Süd"},"geometry":{"type":"Point","coordinates":[13.35482952821687,52.42275848191458]}},{"type":"Feature","properties":{"id":"06020410","name":"Oberhofer Platz"},"geometry":{"type":"Point","coordinates":[13.327915122231545,52.422743477660504]}},{"type":"Feature","properties":{"id":"06020411","name":"Schütte-Lanz-Straße"},"geometry":{"type":"Point","coordinates":[13.32963993648308,52.41241813681391]}},{"type":"Feature","properties":{"id":"06040701","name":"Wannsee"},"geometry":{"type":"Point","coordinates":[13.141237710568936,52.419835782759925]}},{"type":"Feature","properties":{"id":"06040702","name":"Düppel"},"geometry":{"type":"Point","coordinates":[13.207314864337798,52.42083377105891]}},{"type":"Feature","properties":{"id":"06040703","name":"Nikolassee"},"geometry":{"type":"Point","coordinates":[13.188579559914457,52.44512115220938]}},{"type":"Feature","properties":{"id":"06040806","name":"Fischtal"},"geometry":{"type":"Point","coordinates":[13.254630691811617,52.44971568737403]}},{"type":"Feature","properties":{"id":"06040807","name":"Zehlendorf Eiche"},"geometry":{"type":"Point","coordinates":[13.265174302369829,52.4405000289206]}},{"type":"Feature","properties":{"id":"06040808","name":"Hüttenweg"},"geometry":{"type":"Point","coordinates":[13.263148283372237,52.45988280253628]}},{"type":"Feature","properties":{"id":"07010101","name":"Wittenbergplatz/Viktoria-Luise-Platz"},"geometry":{"type":"Point","coordinates":[13.342252154770929,52.499214317521584]}},{"type":"Feature","properties":{"id":"07010102","name":"Nollendorfplatz"},"geometry":{"type":"Point","coordinates":[13.349697636114856,52.498594144664295]}},{"type":"Feature","properties":{"id":"07010103","name":"Barbarossaplatz"},"geometry":{"type":"Point","coordinates":[13.348041466724576,52.49200745814768]}},{"type":"Feature","properties":{"id":"07010104","name":"Dennewitzplatz"},"geometry":{"type":"Point","coordinates":[13.366220634122154,52.493706376645896]}},{"type":"Feature","properties":{"id":"07020201","name":"Bayerischer Platz"},"geometry":{"type":"Point","coordinates":[13.341271281279525,52.489972522717636]}},{"type":"Feature","properties":{"id":"07020202","name":"Volkspark (Rudolf-Wilde-Park)"},"geometry":{"type":"Point","coordinates":[13.340970266817791,52.48201578594145]}},{"type":"Feature","properties":{"id":"07020203","name":"Kaiser-Wilhelm-Platz"},"geometry":{"type":"Point","coordinates":[13.350617130992939,52.48542791362152]}},{"type":"Feature","properties":{"id":"07020204","name":"Schöneberger Insel"},"geometry":{"type":"Point","coordinates":[13.363736967919614,52.48142607377202]}},{"type":"Feature","properties":{"id":"07040402","name":"Lindenhofsiedlung"},"geometry":{"type":"Point","coordinates":[13.364338119968117,52.46352012478199]}},{"type":"Feature","properties":{"id":"07040403","name":"Manteuffelstraße"},"geometry":{"type":"Point","coordinates":[13.377959902434291,52.46227044839415]}},{"type":"Feature","properties":{"id":"07040404","name":"Marienhöhe"},"geometry":{"type":"Point","coordinates":[13.366149703533523,52.45174227129282]}},{"type":"Feature","properties":{"id":"07040405","name":"Rathaus Tempelhof"},"geometry":{"type":"Point","coordinates":[13.393060580024603,52.461132662963415]}},{"type":"Feature","properties":{"id":"07050501","name":"Rathausstraße"},"geometry":{"type":"Point","coordinates":[13.375902411845091,52.443989494516075]}},{"type":"Feature","properties":{"id":"07050502","name":"Fritz-Werner-Straße"},"geometry":{"type":"Point","coordinates":[13.381254599894863,52.4326637726266]}},{"type":"Feature","properties":{"id":"07050503","name":"Eisenacher Straße"},"geometry":{"type":"Point","coordinates":[13.391266946366892,52.44686031837756]}},{"type":"Feature","properties":{"id":"07050504","name":"Imbrosweg"},"geometry":{"type":"Point","coordinates":[13.407631614927471,52.44559065443606]}},{"type":"Feature","properties":{"id":"07050505","name":"Hundsteinweg"},"geometry":{"type":"Point","coordinates":[13.399607361213418,52.4320700117374]}},{"type":"Feature","properties":{"id":"07050506","name":"Birnhornweg"},"geometry":{"type":"Point","coordinates":[13.392345549995511,52.42198385945234]}},{"type":"Feature","properties":{"id":"07060601","name":"Marienfelder Allee Nordwest"},"geometry":{"type":"Point","coordinates":[13.362128182011373,52.41907759860374]}},{"type":"Feature","properties":{"id":"07060602","name":"Kirchstraße"},"geometry":{"type":"Point","coordinates":[13.37261627495752,52.41527906010743]}},{"type":"Feature","properties":{"id":"07060603","name":"Marienfelde Nordost"},"geometry":{"type":"Point","coordinates":[13.384154685527795,52.41788560704612]}},{"type":"Feature","properties":{"id":"07060604","name":"Marienfelde Süd"},"geometry":{"type":"Point","coordinates":[13.366785769660982,52.4033344390554]}},{"type":"Feature","properties":{"id":"07070701","name":"Kettinger Straße/Schillerstraße"},"geometry":{"type":"Point","coordinates":[13.39785621288762,52.40496978926566]}},{"type":"Feature","properties":{"id":"07070702","name":"Alt-Lichtenrade/Töpchiner Weg"},"geometry":{"type":"Point","coordinates":[13.413145512479062,52.403697660089435]}},{"type":"Feature","properties":{"id":"07070703","name":"John-Locke-Straße"},"geometry":{"type":"Point","coordinates":[13.400036897186938,52.39076204052699]}},{"type":"Feature","properties":{"id":"07070704","name":"Nahariyastraße"},"geometry":{"type":"Point","coordinates":[13.416470820606198,52.39129468328112]}},{"type":"Feature","properties":{"id":"07070705","name":"Franziusweg/Rohrbachstraße"},"geometry":{"type":"Point","coordinates":[13.390894747611892,52.38827415429686]}},{"type":"Feature","properties":{"id":"07070706","name":"Horstwalder Straße/Paplitzer Straße"},"geometry":{"type":"Point","coordinates":[13.408585119215275,52.38188440086087]}},{"type":"Feature","properties":{"id":"07070707","name":"Wittelsbacherstraße"},"geometry":{"type":"Point","coordinates":[13.419447673436114,52.38354464595182]}},{"type":"Feature","properties":{"id":"08010115","name":"Hasenheide"},"geometry":{"type":"Point","coordinates":[13.414597749140995,52.47977652713581]}},{"type":"Feature","properties":{"id":"08010116","name":"Wissmannstraße"},"geometry":{"type":"Point","coordinates":[13.42259661425008,52.48268152504747]}},{"type":"Feature","properties":{"id":"08010117","name":"Schillerpromenade"},"geometry":{"type":"Point","coordinates":[13.422723547449221,52.47637585495256]}},{"type":"Feature","properties":{"id":"08010211","name":"Flughafenstraße"},"geometry":{"type":"Point","coordinates":[13.429351445570724,52.48129721819372]}},{"type":"Feature","properties":{"id":"08010303","name":"Donaustraße"},"geometry":{"type":"Point","coordinates":[13.431741727858316,52.48405848817339]}},{"type":"Feature","properties":{"id":"08010212","name":"Rollberg"},"geometry":{"type":"Point","coordinates":[13.43406249373486,52.476467591701784]}},{"type":"Feature","properties":{"id":"08010213","name":"Körnerpark"},"geometry":{"type":"Point","coordinates":[13.434792595620667,52.47148424782917]}},{"type":"Feature","properties":{"id":"08010404","name":"Rixdorf"},"geometry":{"type":"Point","coordinates":[13.445822084373317,52.4748822689799]}},{"type":"Feature","properties":{"id":"08010405","name":"Hertzbergplatz"},"geometry":{"type":"Point","coordinates":[13.447616807496525,52.48043439110323]}},{"type":"Feature","properties":{"id":"08010406","name":"Treptower Straße Nord"},"geometry":{"type":"Point","coordinates":[13.452305758692885,52.48374237953876]}},{"type":"Feature","properties":{"id":"08010407","name":"Gewerbegebiet Ederstraße"},"geometry":{"type":"Point","coordinates":[13.455073546898289,52.477576928455335]}},{"type":"Feature","properties":{"id":"08010508","name":"Weiße Siedlung"},"geometry":{"type":"Point","coordinates":[13.463438065384828,52.47573845815646]}},{"type":"Feature","properties":{"id":"08010509","name":"Schulenburgpark"},"geometry":{"type":"Point","coordinates":[13.471090952664618,52.46598766333695]}},{"type":"Feature","properties":{"id":"08020619","name":"Buschkrugallee Nord"},"geometry":{"type":"Point","coordinates":[13.448550889358087,52.45799241229387]}},{"type":"Feature","properties":{"id":"08020620","name":"Tempelhofer Weg"},"geometry":{"type":"Point","coordinates":[13.429558778614396,52.453396837870805]}},{"type":"Feature","properties":{"id":"08020621","name":"Mohriner Allee Nord"},"geometry":{"type":"Point","coordinates":[13.4192127953888,52.4444569157153]}},{"type":"Feature","properties":{"id":"08020622","name":"Parchimer Allee"},"geometry":{"type":"Point","coordinates":[13.446126874615505,52.44469150820456]}},{"type":"Feature","properties":{"id":"08020623","name":"Ortolanweg"},"geometry":{"type":"Point","coordinates":[13.464857901941834,52.44595773246178]}},{"type":"Feature","properties":{"id":"08020624","name":"Britzer Garten"},"geometry":{"type":"Point","coordinates":[13.422154789771607,52.432577206089555]}},{"type":"Feature","properties":{"id":"08020625","name":"Handwerker-Siedlung"},"geometry":{"type":"Point","coordinates":[13.441310199169996,52.432137260310824]}},{"type":"Feature","properties":{"id":"08020726","name":"Buckow West"},"geometry":{"type":"Point","coordinates":[13.410247425592736,52.41913943997136]}},{"type":"Feature","properties":{"id":"08020727","name":"Buckow Mitte"},"geometry":{"type":"Point","coordinates":[13.427674494778236,52.418847296264126]}},{"type":"Feature","properties":{"id":"08020728","name":"Buckow Ost"},"geometry":{"type":"Point","coordinates":[13.442772519003153,52.42053703914497]}},{"type":"Feature","properties":{"id":"08030829","name":"Gropiusstadt Nord"},"geometry":{"type":"Point","coordinates":[13.460601267416633,52.43032190489609]}},{"type":"Feature","properties":{"id":"08040932","name":"Goldhähnchenweg"},"geometry":{"type":"Point","coordinates":[13.460193048766095,52.442826906197986]}},{"type":"Feature","properties":{"id":"08040933","name":"Vogelviertel Süd"},"geometry":{"type":"Point","coordinates":[13.458143038301372,52.43626554939573]}},{"type":"Feature","properties":{"id":"08040934","name":"Vogelviertel Nord"},"geometry":{"type":"Point","coordinates":[13.466474477015625,52.43891177252924]}},{"type":"Feature","properties":{"id":"08041035","name":"Blumenviertel"},"geometry":{"type":"Point","coordinates":[13.482620073640838,52.433179599933446]}},{"type":"Feature","properties":{"id":"08041036","name":"Zittauer Straße"},"geometry":{"type":"Point","coordinates":[13.47969846715665,52.41399755305328]}},{"type":"Feature","properties":{"id":"08041037","name":"Alt-Rudow"},"geometry":{"type":"Point","coordinates":[13.501804297045036,52.42434273843353]}},{"type":"Feature","properties":{"id":"08041040","name":"Waltersdorfer Chaussee Ost"},"geometry":{"type":"Point","coordinates":[13.513041291691954,52.412739593583794]}},{"type":"Feature","properties":{"id":"08041038","name":"Waßmannsdorfer Chaussee"},"geometry":{"type":"Point","coordinates":[13.492383085964903,52.40611576140728]}},{"type":"Feature","properties":{"id":"08041039","name":"Frauenviertel"},"geometry":{"type":"Point","coordinates":[13.507312954394514,52.403156258984595]}},{"type":"Feature","properties":{"id":"09020601","name":"Schnellerstraße"},"geometry":{"type":"Point","coordinates":[13.50349690383765,52.459192340284076]}},{"type":"Feature","properties":{"id":"09020602","name":"Oberspree"},"geometry":{"type":"Point","coordinates":[13.530605685030938,52.44781537386405]}},{"type":"Feature","properties":{"id":"09020702","name":"Adlershof Ost"},"geometry":{"type":"Point","coordinates":[13.549765526379831,52.43917273878521]}},{"type":"Feature","properties":{"id":"09030901","name":"Dorf Altglienicke"},"geometry":{"type":"Point","coordinates":[13.554321239821524,52.41346483676679]}},{"type":"Feature","properties":{"id":"09030902","name":"Wohngebiet II"},"geometry":{"type":"Point","coordinates":[13.525614414437893,52.40343536899377]}},{"type":"Feature","properties":{"id":"10010101","name":"Marzahn West"},"geometry":{"type":"Point","coordinates":[13.556434746209831,52.5676370292925]}},{"type":"Feature","properties":{"id":"10010203","name":"Gewerbegebiet Bitterfelder Straße"},"geometry":{"type":"Point","coordinates":[13.540376698286194,52.55405877418881]}},{"type":"Feature","properties":{"id":"10010205","name":"Marzahn Ost"},"geometry":{"type":"Point","coordinates":[13.579872593298647,52.55394831108439]}},{"type":"Feature","properties":{"id":"10010310","name":"Alt-Marzahn"},"geometry":{"type":"Point","coordinates":[13.55564448788185,52.53920632960101]}},{"type":"Feature","properties":{"id":"10010309","name":"Springpfuhl"},"geometry":{"type":"Point","coordinates":[13.543313268112097,52.527945355710244]}},{"type":"Feature","properties":{"id":"10020412","name":"Alte Hellersdorfer Straße"},"geometry":{"type":"Point","coordinates":[13.593830749091342,52.5466481637772]}},{"type":"Feature","properties":{"id":"10020413","name":"Gut Hellersdorf"},"geometry":{"type":"Point","coordinates":[13.59203750716963,52.540096469366524]}},{"type":"Feature","properties":{"id":"10020414","name":"Helle Mitte"},"geometry":{"type":"Point","coordinates":[13.602712522674976,52.53763624559525]}},{"type":"Feature","properties":{"id":"10020519","name":"Boulevard Kastanienallee"},"geometry":{"type":"Point","coordinates":[13.602901663151208,52.53221804134755]}},{"type":"Feature","properties":{"id":"10020620","name":"Kaulsdorf Nord II"},"geometry":{"type":"Point","coordinates":[13.586331795607546,52.52864880120617]}},{"type":"Feature","properties":{"id":"10020621","name":"Gelbes Viertel"},"geometry":{"type":"Point","coordinates":[13.5939455576141,52.52860487710146]}},{"type":"Feature","properties":{"id":"10020517","name":"Adele-Sandrock-Straße"},"geometry":{"type":"Point","coordinates":[13.618198243323183,52.535312304852134]}},{"type":"Feature","properties":{"id":"10040828","name":"Kaulsdorf Nord"},"geometry":{"type":"Point","coordinates":[13.602359113997037,52.51998816062205]}},{"type":"Feature","properties":{"id":"10040931","name":"Mahlsdorf Nord"},"geometry":{"type":"Point","coordinates":[13.632002583147127,52.52195672550119]}},{"type":"Feature","properties":{"id":"11030720","name":"Herzbergstraße"},"geometry":{"type":"Point","coordinates":[13.5043089808272,52.52659002933598]}},{"type":"Feature","properties":{"id":"11030721","name":"Rüdigerstraße"},"geometry":{"type":"Point","coordinates":[13.48656227311477,52.5173828137726]}},{"type":"Feature","properties":{"id":"12103115","name":"Breitkopfbecken"},"geometry":{"type":"Point","coordinates":[13.36605144594925,52.573025769568275]}},{"type":"Feature","properties":{"id":"12103116","name":"Hausotterplatz"},"geometry":{"type":"Point","coordinates":[13.375695233585152,52.57054018586231]}},{"type":"Feature","properties":{"id":"12103117","name":"Letteplatz"},"geometry":{"type":"Point","coordinates":[13.368380213329996,52.563248071713744]}},{"type":"Feature","properties":{"id":"12103218","name":"Teichstraße"},"geometry":{"type":"Point","coordinates":[13.35235845881056,52.57634724212596]}},{"type":"Feature","properties":{"id":"12103219","name":"Schäfersee"},"geometry":{"type":"Point","coordinates":[13.355106170432741,52.56529965268257]}},{"type":"Feature","properties":{"id":"12214125","name":"Waldidyll/Flughafensee"},"geometry":{"type":"Point","coordinates":[13.27983683181874,52.56254771293173]}},{"type":"Feature","properties":{"id":"12214126","name":"Tegel Süd"},"geometry":{"type":"Point","coordinates":[13.285672852653704,52.57835947714189]}},{"type":"Feature","properties":{"id":"12214422","name":"Klixstraße"},"geometry":{"type":"Point","coordinates":[13.308745986276506,52.571913611632525]}},{"type":"Feature","properties":{"id":"12214424","name":"Scharnweberstraße"},"geometry":{"type":"Point","coordinates":[13.320928514131033,52.56619153928391]}},{"type":"Feature","properties":{"id":"12301205","name":"Waidmannslust"},"geometry":{"type":"Point","coordinates":[13.316322055293117,52.60665363140608]}},{"type":"Feature","properties":{"id":"12302212","name":"Rollbergesiedlung"},"geometry":{"type":"Point","coordinates":[13.331378570401876,52.60779105847692]}},{"type":"Feature","properties":{"id":"12302107","name":"Schorfheidestraße"},"geometry":{"type":"Point","coordinates":[13.35533032219664,52.594511545442884]}},{"type":"Feature","properties":{"id":"12302108","name":"Märkisches Zentrum"},"geometry":{"type":"Point","coordinates":[13.351640742746108,52.60174487688373]}},{"type":"Feature","properties":{"id":"12302109","name":"Treuenbrietzener Straße"},"geometry":{"type":"Point","coordinates":[13.36551745526615,52.601877772365455]}},{"type":"Feature","properties":{"id":"12302110","name":"Dannenwalder Weg"},"geometry":{"type":"Point","coordinates":[13.364892511014476,52.593828954324024]}},{"type":"Feature","properties":{"id":"12304313","name":"Borsigwalde"},"geometry":{"type":"Point","coordinates":[13.30950013786045,52.583830855060995]}},{"type":"Feature","properties":{"id":"12304314","name":"Ziekowstraße/Freie Scholle"},"geometry":{"type":"Point","coordinates":[13.295033452549886,52.59664461302003]}}]}
